{
  "femug": [
    { "name": "FEMUG-SP",
      "chapter": "estadual",
      "host_city": "São Paulo, SP",
      "geo": {
        "lat": "-23.5505199",
        "lng": "-46.63330939999997"
        },
      "url": "http://bit.ly/FEMUG-SP",
      "host_form": "http://goo.gl/forms/RKo0AZzseH0Ip0PC3",
      "founder": "Daniel Filho",
      "moderators": [
        "Diogo Silva",
        "Lucas Mazza",
        "Marcel dos Santos"
      ]
    },
    { "name": "FEMUG-RS",
      "chapter": "estadual",
      "host_city": "Porto Alegre, RS",
      "geo": {
        "lat": "-30.0346471",
        "lng": "-51.217658400000005"
        },
      "url": "http://goo.gl/RDWFlf",
      "host_form": "",
      "founder": "Jaydson Gomes",
      "moderators": [
        "Jaydson Gomes",
        "Felipe Moura",
        "Jean Carlo Emer"
      ]
    },
    { "name": "FEMUG-CE",
      "chapter": "estadual",
      "host_city": "Fortaleza, CE",
      "geo": {
        "lat": "-3.7318616",
        "lng": "-38.5266704"
        },
      "url": "http://bit.ly/FEMUG-CE",
      "host_form": "",
      "founder": "Daniel Castro",
      "moderators": [
        "Daniel Castro",
        "Elias de Oliveira"
      ]
    },
    { "name": "FEMUG-MG",
      "chapter": "estadual",
      "host_city": "Belo Horizonte, MG",
      "geo": {
        "lat": "-19.9166813",
        "lng": "-43.9344931"
        },
      "url": "https://goo.gl/o2ITVw",
      "host_form": "",
      "founder": "Beto Muniz",
      "moderators": [
        "Beto Muniz",
        "Juan Pablo Rivillas",
        "Rodrigo Antinarelli",
        "Victor Ferraz",
        "Yan Magalhães"
      ]
    },
    { "name": "FEMUG-GO",
      "chapter": "estadual",
      "host_city": "Goiânia, GO",
      "geo": {
        "lat": "-16.6868912",
        "lng": "-49.264794300000005"
        },
      "url": "http://bit.ly/FEMUG-GO",
      "host_form": "",
      "founder": "João Felix",
      "moderators": [
        "João Felix"
      ]
    },
    { "name": "FEMUG-SC",
      "chapter": "estadual",
      "host_city": "Florianópolis, SC",
      "geo": {
        "lat": "-27.5953778",
        "lng": "-48.548049900000024"
        },
      "url": "http://goo.gl/vwLJe9",
      "host_form": "",
      "founder": "Diogo Moretti",
      "moderators": [
        "Diogo Moretti",
        "Pedro Nauck"
      ]
    },
    { "name": "FEMUG-AM",
      "chapter": "estadual",
      "host_city": "Manaus, AM",
      "geo": {
        "lat": "-3.1190275",
        "lng": "-60.02173140000002"
        },
      "url": "http://j.mp/femug-am",
      "host_form": "http://j.mp/femug-am-anf",
      "founder": "Ayrton Araújo",
      "moderators": [
        "Ayrton Araújo"
      ]
    },
    { "name": "FEMUG-SM",
      "chapter": "regional",
      "host_city": "Santa Maria, RS",
      "geo": {
        "lat": "-29.6873064",
        "lng": "-53.81547690000002"
        },
      "url": "http://bit.ly/FEMUG-SM",
      "host_form": "http://bit.ly/FEMUG-SM-ANF",
      "founder": "Thiago Alves Luiz",
      "moderators": [
        "Thiago Alves Luiz",
        "Tonin R. Bolzan"
      ]
    },
    { "name": "FEMUG-LI",
      "chapter": "regional",
      "host_city": "Linhares, ES",
      "geo": {
        "lat": "-19.3946651",
        "lng": "-40.065264100000036"
        },
      "url": "http://bit.ly/1Fo0bI5",
      "host_form": "",
      "founder": "Lucas Valhos",
      "moderators": [
        "Lucas Valhos",
        "Leonan Luppi"
      ]
    },
    { "name": "FEMUG-DF",
      "chapter": "estadual",
      "host_city": "Brasília, DF",
      "geo": {
        "lat": "-15.7942287",
        "lng": "-47.882165799999996"
        },
      "url": "http://goo.gl/QTcfak",
      "host_form": "",
      "founder": "Leandro Ferreira",
      "moderators": [
        "Leandro Ferreira",
        "Joilson Marques"
      ]
    },
    { "name": "FEMUG-AL",
      "chapter": "estadual",
      "host_city": "Maceió, AL",
      "geo": {
        "lat": "-9.6498487",
        "lng": "-35.708949200000006"
        },
      "url": "http://meetup.com/FEMUG-AL",
      "host_form": "",
      "founder": "Juarez Filho",
      "moderators": [
        "Juarez Filho",
        "Tiago Cedrim"
      ]
    },
    { "name": "FEMUG-MA",
      "chapter": "estadual",
      "host_city": "São Luis, MA",
      "geo": {
        "lat": "-2.5391099",
        "lng": "-44.282904599999995"
        },
      "url": "https://goo.gl/zJH9K0",
      "host_form": "",
      "founder": "Nanderson Castro",
      "moderators": [
        "Nanderson Castro",
        "Junior Lima"
      ]
    },
    { "name": "FEMUG-PE",
      "chapter": "estadual",
      "host_city": "Recife, PE",
      "geo": {
        "lat": "-8.0578381",
        "lng": "-34.88289689999999"
        },
      "url": "http://meetup.com/FEMUG-PE/",
      "host_form": "",
      "founder": "Joselito Júnior",
      "moderators": [
        "Clóvis Neto",
        "Jeftár Mascarenhas"
      ]
    },
    { "name": "FEMUG-ABC",
      "chapter": "regional",
      "host_city": "São Bernardo do Campo, SP",
      "geo": {
        "lat": "-23.6898429",
        "lng": "-46.564848100000006"
        },
      "url": "https://goo.gl/jvfyUb",
      "host_form": "",
      "founder": "William de Oliveira Souza",
      "moderators": [
        "Ubirajara Pelli",
        "Marcus Vinicius(Marquinhus)"
      ]
    },
    { "name": "FEMUG-RJ",
      "chapter": "regional",
      "host_city": "Rio de Janeiro, RJ",
      "geo": {
        "lat": "-22.9068467",
        "lng": "-43.17289649999998"
        },
      "url": "http://bit.ly/1Ulw0xh",
      "host_form": "",
      "founder": "Raphael Amorim",
      "moderators": [
        "Richard Duchatsch Johansen",
        "Afonso Pacifer"
      ]
    },
    { "name": "FEMUG-CWB",
      "chapter": "regional",
      "host_city": "Curitiba, PR",
      "geo": {
        "lat": "-25.428954",
        "lng": "-49.267137"
        },
      "url": "http://bit.ly/1KOES4M",
      "host_form": "",
      "founder": "Fernando Moreira",
      "moderators": [
        "Celso Fabri",
        "Cezar Luiz",
        "Lídia Freitas",
        "Matheus Vieira"
      ]
    },
    { "name": "FEMUG-MGA",
      "chapter": "regional",
      "host_city": "Maringá, PR",
      "geo": {
        "lat": "-23.421000",
        "lng": "-51.933056"
        },
      "url": "http://bit.ly/1T5Ukyt",
      "host_form": "",
      "founder": "Guilherme Bayer",
      "moderators": [
        "Guilherme Bayer",
        "Renan Pimentel"
      ]
    },
    { "name": "FEMUG-JLLE",
      "chapter": "regional",
      "host_city": "Joinville, SC",
      "geo": {
        "lat": "-26.304408",
        "lng": "-48.846383"
        },
      "url": "http://bit.ly/1OA8fM5",
      "host_form": "",
      "founder": "Matheus Poleza",
      "moderators": [
        "Matheus Poleza",
        "Fernando Daciuk",
        "Guilherme Berghauser"
      ]
    }
  ]
}
